~Version Information Block
VERS .                 2.00:  CWLS LOG ASCII STANDARD - VERSION 2.00
WRAP .                   NO:  One line per depth step
~Well Information Block
#MNEM.UNIT        Data Type   Information
#---------- ----------------  -----------
STRT .M          1646.07240:  START DEPTH
STOP .M          2270.91240:  STOP DEPTH
STEP .M             0.15240:  STEP
NULL .              -999.25:  NULL VALUE
COMP .                     :  COMPANY
WELL .             Test_LAS:  WELL
FLD  .                     :  FIELD
LOC  .                     :  LOCATION
CTRY .                     :  COUNTRY
STAT .                     :  STATE
CNTY .                     :  COUNTY
SRVC .     Petroleum Corporation of NZ Exploration Ltd:  SERVICE COMPANY
DATE .                     :  DATE
API  .                     :  API NUMBER
UWI  .         100000113635:  UNIQUE WELL ID
LATI .          -39.0898733:  LATITUDE
LONG .           174.332882:  LONGITUDE
~Curve Information Block
#MNEM.UNIT         API CODE   Curve Description
#---------- ----------------  -----------------
DEPTH.M                    :  
DENS .G/C3                 :  (RHOB)
GR   .GAPI                 :  (GR)
RESD .OHMM                 :  (LLD)
~Parameter Information Block
#MNEM.UNIT            Value   Description
#---------- ----------------  -----------
CUR_INT_BOT.M                2271:  Current interpolated bottom
PROJECT.     New Zealand Log QC Project:  
SET  .     A0_FINAL_INTER_REF_D:  
ELEVATION_AMSL.M               128.3:  Elevation above mean sea level
ELEVATION_REF.                   KB:  Measurement reference
FORMATION_AT_TD.            Mangahewa:  Formation at TD
GL_ELEVATION_AMSL.M            123.4000:  Ground level elevation above mean sea level
KICK_OFF_DATE.           12/06/1987:  Kick off date
KICK_OFF_DEPTH.M                1843:  Kick off depth
LICENCE_NUMBER.             PML98086:  Licence number
ONSHORE_OR_OFFSHORE.              Onshore:  Onshore/offshore
PARENT_WELL.              McKee-7:  Parent well
PR_NUMBER.               PR1814:  Petroleum report number
STATUS_AT_COMPLETION.     Plugged and abandoned:  Status at completion
TD_DATE.           15/06/1987:  Total depth date
TOTAL_DEPTH_DRILLED.M                2271:  Total depth drilled
~Other Information Block
# 
~A           DEPTH           DENS              GR            RESD
# ...
   	2157.52680 	2.6770 	39.0111 	29.6771
   	2157.67920 	2.6494 	39.4576 	29.2117
   	2157.83160 	2.6218 	39.9042 	28.7462
   	2157.98400 	2.5941 	40.3507 	28.2807
   	2158.13640 	2.5623 	37.2905 	39.3432
   	2158.28880 	2.5299 	33.8189 	51.7579
   	2158.44120 	2.4976 	30.3474 	64.1727
   	2158.59360 	2.4632 	28.6193 	80.4095
   	2158.74600 	2.4275 	27.9865 	99.0474
   	2158.89840 	2.3918 	27.3537 	117.6853
   	2159.05080 	2.3653 	26.9879 	140.1314
   	2159.20320 	2.3572 	27.1563 	170.1939
   	2159.35560 	2.3492 	27.3247 	200.2564
   	2159.50800 	2.3416 	27.5039 	230.8048
   	2159.66040 	2.3432 	27.8792 	270.1229
   	2159.81280 	2.3447 	28.2545 	309.4409
   	2159.96520 	2.3463 	28.6298 	348.7590
   	2160.11760 	2.3430 	28.4003 	351.1096
   	2160.27000 	2.3382 	27.9918 	342.5208
   	2160.42240 	2.3334 	27.5833 	333.9320
   	2160.57480 	2.3282 	28.1513 	320.3906
   	2160.72720 	2.3225 	29.7321 	301.7114
   	2160.87960 	2.3168 	31.3129 	283.0322
   	2161.03200 	2.3174 	32.2109 	268.2917
   	2161.18440 	2.3413 	30.5396 	268.3708
   	2161.33680 	2.3652 	28.8683 	268.4500
   	2161.48920 	2.3891 	27.1970 	268.5291
   	2161.64160 	2.4032 	29.1639 	238.8814
   	2161.79400 	2.4166 	31.4083 	206.9664
   	2161.94640 	2.4300 	33.6527 	175.0513
   	2162.09880 	2.4181 	35.5385 	154.6551
   	2162.25120 	2.3925 	37.2297 	140.5079
   	2162.40360 	2.3669 	38.9210 	126.3607
   	2162.55600 	2.3472 	40.3104 	115.4039
   	2162.70840 	2.3374 	41.1804 	109.9389
   	2162.86080 	2.3277 	42.0503 	104.4739
   	2163.01320 	2.3181 	42.8010 	99.7368
   	2163.16560 	2.3095 	42.2943 	102.6753
   	2163.31800 	2.3008 	41.7876 	105.6139
   	2163.47040 	2.2922 	41.2809 	108.5524
   	2163.62280 	2.2933 	42.4673 	108.8893
   	2163.77520 	2.2967 	44.0619 	108.5990
   	2163.92760 	2.3001 	45.6564 	108.3087
   	2164.08000 	2.2979 	46.5118 	104.0739
   	2164.23240 	2.2905 	46.6982 	96.2693
   	2164.38480 	2.2832 	46.8846 	88.4647
   	2164.53720 	2.2846 	47.0170 	82.4962
   	2164.68960 	2.3131 	46.9823 	82.2137
   	2164.84200 	2.3415 	46.9476 	81.9312
   	2164.99440 	2.3700 	46.9129 	81.6487
   	2165.14680 	2.3716 	47.9102 	76.9107
   	2165.29920 	2.3721 	48.9469 	72.0026
   	2165.45160 	2.3726 	49.9835 	67.0946
   	2165.60400 	2.3750 	50.4882 	65.1848
   	2165.75640 	2.3781 	50.7452 	64.6705
   	2165.90880 	2.3813 	51.0023 	64.1562
   	2166.06120 	2.3806 	50.1128 	66.0355
   	2166.21360 	2.3743 	47.5148 	71.4818
   	2166.36600 	2.3680 	44.9167 	76.9281
   	2166.51840 	2.3602 	42.6694 	82.4102
   	2166.67080 	2.3414 	42.9760 	88.1533
   	2166.82320 	2.3226 	43.2826 	93.8963
   	2166.97560 	2.3038 	43.5893 	99.6393
   	2167.12800 	2.3041 	44.1585 	102.4357
   	2167.28040 	2.3081 	44.7779 	104.6703
   	2167.43280 	2.3120 	45.3973 	106.9050
   	2167.58520 	2.3120 	44.4412 	108.1565
   	2167.73760 	2.3088 	42.2424 	108.6327
   	2167.89000 	2.3056 	40.0437 	109.1089
   	2168.04240 	2.3022 	38.5811 	107.3972
   	2168.19480 	2.2984 	39.0283 	100.0096
   	2168.34720 	2.2946 	39.4755 	92.6220
   	2168.49960 	2.2907 	39.9227 	85.2343
   	2168.65200 	2.2967 	42.5063 	82.9565
   	2168.80440 	2.3026 	45.0956 	80.6920
   	2168.95680 	2.3086 	47.6848 	78.4276
   	2169.10920 	2.3073 	47.6220 	79.6091
   	2169.26160 	2.3031 	46.5099 	82.1539
   	2169.41400 	2.2989 	45.3979 	84.6987
   	2169.56640 	2.2992 	45.0242 	87.8455
   	2169.71880 	2.3055 	45.6070 	91.7720
   	2169.87120 	2.3118 	46.1898 	95.6985
   	2170.02360 	2.3173 	46.9331 	97.8530
   	2170.17600 	2.3184 	48.5525 	90.3368
   	2170.32840 	2.3196 	50.1719 	82.8205
   	2170.48080 	2.3208 	51.7913 	75.3042
   	2170.63320 	2.3235 	50.2457 	74.7592
   	2170.78560 	2.3263 	48.2439 	75.2190
   	2170.93800 	2.3292 	46.2421 	75.6789
   	2171.09040 	2.3242 	45.9364 	78.3913
   	2171.24280 	2.3139 	46.7940 	82.6486
   	2171.39520 	2.3035 	47.6517 	86.9059
   	2171.54760 	2.2969 	48.1511 	89.3748
   	2171.70000 	2.2986 	47.8618 	87.9062
   	2171.85240 	2.3004 	47.5726 	86.4376
   	2172.00480 	2.3022 	47.3249 	85.0279
   	2172.15720 	2.3061 	48.3555 	85.4287
   	2172.30960 	2.3100 	49.3862 	85.8295
   	2172.46200 	2.3140 	50.4168 	86.2304
   	2172.61440 	2.3118 	49.3634 	88.4864
   	2172.76680 	2.3077 	47.6178 	91.3586
   	2172.91920 	2.3036 	45.8721 	94.2307
   	2173.07160 	2.2997 	44.9491 	95.9336
   	2173.22400 	2.2961 	44.9546 	96.3169
   	2173.37640 	2.2926 	44.9601 	96.7002
   	2173.52880 	2.2898 	44.8690 	97.4500
   	2173.68120 	2.2903 	44.3635 	99.7725
   	2173.83360 	2.2909 	43.8581 	102.0950
   	2173.98600 	2.2914 	43.3526 	104.4175
   	2174.13840 	2.2928 	44.4033 	106.1041
   	2174.29080 	2.2942 	45.6113 	107.7264
   	2174.44320 	2.2957 	46.8194 	109.3487
   	2174.59560 	2.2993 	48.1432 	109.1680
   	2174.74800 	2.3041 	49.5359 	107.9162
   	2174.90040 	2.3089 	50.9285 	106.6643
   	2175.05280 	2.3121 	51.0889 	106.9633
   	2175.20520 	2.3121 	48.9249 	110.1875
   	2175.35760 	2.3122 	46.7608 	113.4118
   	2175.51000 	2.3117 	44.7816 	116.5073
   	2175.66240 	2.3028 	45.4350 	117.7691
   	2175.81480 	2.2938 	46.0883 	119.0309
   	2175.96720 	2.2849 	46.7417 	120.2927
   	2176.11960 	2.2846 	46.5619 	114.4383
   	2176.27200 	2.2867 	46.1535 	106.6324
   	2176.42440 	2.2887 	45.7452 	98.8264
   	2176.57680 	2.2924 	45.5216 	93.3443
   	2176.72920 	2.2978 	45.4800 	90.1496
   	2176.88160 	2.3032 	45.4384 	86.9549
   	2177.03400 	2.3065 	45.1268 	84.9987
   	2177.18640 	2.3031 	43.8754 	87.3554
   	2177.33880 	2.2996 	42.6240 	89.7122
   	2177.49120 	2.2962 	41.3726 	92.0689
   	2177.64360 	2.2942 	40.9054 	92.1601
   	2177.79600 	2.2922 	40.4862 	92.1125
   	2177.94840 	2.2903 	40.0669 	92.0649
   	2178.10080 	2.2901 	41.2779 	89.5713
   	2178.25320 	2.2908 	43.3234 	85.8257
   	2178.40560 	2.2914 	45.3688 	82.0800
   	2178.55800 	2.2928 	47.0872 	78.6894
   	2178.71040 	2.2953 	48.2733 	75.8767
   	2178.86280 	2.2978 	49.4595 	73.0640
   	2179.01520 	2.3005 	50.7208 	70.2615
   	2179.16760 	2.3051 	52.6611 	67.5519
   	2179.32000 	2.3096 	54.6014 	64.8422
   	2179.47240 	2.3142 	56.5417 	62.1326
   	2179.62480 	2.3158 	54.5321 	60.1374
   	2179.77720 	2.3168 	51.6489 	58.3002
   	2179.92960 	2.3178 	48.7658 	56.4630
   	2180.08200 	2.3170 	48.0614 	55.5246
   	2180.23440 	2.3147 	49.2275 	55.3580
   	2180.38680 	2.3124 	50.3937 	55.1915
   	2180.53920 	2.3144 	51.2044 	54.9858
   	2180.69160 	2.3290 	50.9884 	54.6673
   	2180.84400 	2.3435 	50.7724 	54.3487
   	2180.99640 	2.3580 	50.5564 	54.0302
   	2181.14880 	2.3620 	47.2311 	55.1253
   	2181.30120 	2.3657 	43.8306 	56.2546
   	2181.45360 	2.3694 	40.4301 	57.3840
   	2181.60600 	2.3628 	39.9183 	60.5453
   	2181.75840 	2.3518 	40.6709 	64.5962
   	2181.91080 	2.3407 	41.4236 	68.6471
   	2182.06320 	2.3335 	41.8206 	74.4857
   	2182.21560 	2.3318 	41.7158 	82.8476
   	2182.36800 	2.3301 	41.6110 	91.2094
   	2182.52040 	2.3273 	41.6458 	97.9277
   	2182.67280 	2.3169 	42.5843 	94.0111
   	2182.82520 	2.3064 	43.5227 	90.0945
   	2182.97760 	2.2960 	44.4612 	86.1780
   	2183.13000 	2.3104 	47.9818 	78.3758
   	2183.28240 	2.3290 	51.9474 	69.9042
   	2183.43480 	2.3476 	55.9129 	61.4325
   	2183.58720 	2.3584 	56.9233 	55.6019
   	2183.73960 	2.3634 	55.7241 	51.7461
   	2183.89200 	2.3684 	54.5250 	47.8903
   	2184.04440 	2.3700 	52.3413 	44.9898
   	2184.19680 	2.3635 	47.7631 	44.4128
   	2184.34920 	2.3570 	43.1848 	43.8358
   	2184.50160 	2.3506 	38.6768 	43.2820
   	2184.65400 	2.3533 	40.7901 	44.9150
   	2184.80640 	2.3561 	42.9034 	46.5480
   	2184.95880 	2.3588 	45.0167 	48.1810
   	2185.11120 	2.3560 	45.8356 	49.2535
   	2185.26360 	2.3511 	46.1749 	50.1182
   	2185.41600 	2.3462 	46.5141 	50.9829
   	2185.56840 	2.3432 	46.7165 	51.4614
   	2185.72080 	2.3423 	46.7508 	51.4655
   	2185.87320 	2.3414 	46.7851 	51.4696
   	2186.02560 	2.3393 	46.9872 	51.3780
   	2186.17800 	2.3315 	48.0200 	50.8119
   	2186.33040 	2.3236 	49.0528 	50.2459
   	2186.48280 	2.3157 	50.0856 	49.6798
   	2186.63520 	2.3442 	50.2839 	49.8877
   	2186.78760 	2.3773 	50.3760 	50.1941
   	2186.94000 	2.4103 	50.4681 	50.5004
