~Version Information Block
VERS .                 2.00:  CWLS LOG ASCII STANDARD - VERSION 2.00
WRAP .                   NO:  One line per depth step
~Well Information Block
#MNEM.UNIT        Data Type   Information
#---------- ----------------  -----------
STRT .M          1646.07240:  START DEPTH
STOP .M          2270.91240:  STOP DEPTH
STEP .M             0.15240:  STEP
NULL .              -999.25:  NULL VALUE
COMP .                     :  COMPANY
WELL .             Test_LAS:  WELL
FLD  .                     :  FIELD
LOC  .                     :  LOCATION
CTRY .                     :  COUNTRY
STAT .                     :  STATE
CNTY .                     :  COUNTY
SRVC .     Petroleum Corporation of NZ Exploration Ltd:  SERVICE COMPANY
DATE .                     :  DATE
API  .                     :  API NUMBER
UWI  .         100000113635:  UNIQUE WELL ID
LATI .          -39.0898733:  LATITUDE
LONG .           174.332882:  LONGITUDE
~Curve Information Block
#MNEM.UNIT         API CODE   Curve Description
#---------- ----------------  -----------------
DEPTH.M                    :  
DENS .G/C3                 :  (RHOB)
GR   .GAPI                 :  (GR)
RESD .OHMM                 :  (LLD)
~Parameter Information Block
#MNEM.UNIT            Value   Description
#---------- ----------------  -----------
CUR_INT_BOT.M                2271:  Current interpolated bottom
PROJECT.     New Zealand Log QC Project:  
SET  .     A0_FINAL_INTER_REF_D:  
ELEVATION_AMSL.M               128.3:  Elevation above mean sea level
ELEVATION_REF.                   KB:  Measurement reference
FORMATION_AT_TD.            Mangahewa:  Formation at TD
GL_ELEVATION_AMSL.M            123.4000:  Ground level elevation above mean sea level
KICK_OFF_DATE.           12/06/1987:  Kick off date
KICK_OFF_DEPTH.M                1843:  Kick off depth
LICENCE_NUMBER.             PML98086:  Licence number
ONSHORE_OR_OFFSHORE.              Onshore:  Onshore/offshore
PARENT_WELL.              McKee-7:  Parent well
PR_NUMBER.               PR1814:  Petroleum report number
STATUS_AT_COMPLETION.     Plugged and abandoned:  Status at completion
TD_DATE.           15/06/1987:  Total depth date
TOTAL_DEPTH_DRILLED.M                2271:  Total depth drilled
~Other Information Block
# 
~A           DEPTH           DENS              GR            RESD
# ...
   	2096.56680 	-999.2500 	60.9617 	4.1982
   	2096.71920 	-999.2500 	58.8480 	4.0167
   	2096.87160 	-999.2500 	56.7343 	3.8352
   	2097.02400 	-999.2500 	55.1553 	3.6660
   	2097.17640 	-999.2500 	56.4371 	3.5626
   	2097.32880 	-999.2500 	57.7189 	3.4592
   	2097.48120 	-999.2500 	59.0007 	3.3558
   	2097.63360 	-999.2500 	60.0925 	3.6520
   	2097.78600 	-999.2500 	61.1576 	4.0045
   	2097.93840 	-999.2500 	62.2227 	4.3570
   	2098.09080 	2.4578 	62.4596 	4.2280
   	2098.24320 	2.4784 	62.1346 	3.7724
   	2098.39560 	2.4990 	61.8097 	3.3168
   	2098.54800 	2.5130 	61.6156 	3.0130
   	2098.70040 	2.5127 	61.7063 	3.0392
   	2098.85280 	2.5124 	61.7970 	3.0654
   	2099.00520 	2.5123 	61.9160 	3.1006
   	2099.15760 	2.5180 	62.8385 	3.3887
   	2099.31000 	2.5236 	63.7609 	3.6768
   	2099.46240 	2.5293 	64.6834 	3.9649
   	2099.61480 	2.5273 	64.9053 	3.9155
   	2099.76720 	2.5229 	64.8978 	3.7556
   	2099.91960 	2.5185 	64.8903 	3.5956
   	2100.07200 	2.5179 	64.8736 	3.6556
   	2100.22440 	2.5216 	64.8465 	3.9613
   	2100.37680 	2.5253 	64.8195 	4.2670
   	2100.52920 	2.5271 	64.6885 	4.4117
   	2100.68160 	2.5208 	64.1187 	3.8768
   	2100.83400 	2.5145 	63.5489 	3.3419
   	2100.98640 	2.5082 	62.9791 	2.8070
   	2101.13880 	2.5071 	61.6108 	2.7786
   	2101.29120 	2.5064 	60.1643 	2.7999
   	2101.44360 	2.5057 	58.7178 	2.8212
   	2101.59600 	2.5001 	55.0417 	2.8433
   	2101.74840 	2.4914 	50.0559 	2.8657
   	2101.90080 	2.4828 	45.0701 	2.8882
   	2102.05320 	2.4746 	43.6223 	3.0305
   	2102.20560 	2.4673 	48.7719 	3.3963
   	2102.35800 	2.4600 	53.9216 	3.7620
   	2102.51040 	2.4542 	58.8427 	4.1115
   	2102.66280 	2.4689 	60.6443 	4.2385
   	2102.81520 	2.4836 	62.4460 	4.3656
   	2102.96760 	2.4983 	64.2476 	4.4926
   	2103.12000 	2.5030 	64.8495 	4.0697
   	2103.27240 	2.5051 	65.1273 	3.4984
   	2103.42480 	2.5073 	65.4052 	2.9271
   	2103.57720 	2.5084 	65.3417 	2.6888
   	2103.72960 	2.5086 	64.9456 	2.7749
   	2103.88200 	2.5088 	64.5495 	2.8610
   	2104.03440 	2.5081 	63.9522 	2.9091
   	2104.18680 	2.5040 	62.6649 	2.8265
   	2104.33920 	2.4998 	61.3776 	2.7440
   	2104.49160 	2.4957 	60.0903 	2.6615
   	2104.64400 	2.4958 	61.4818 	2.6627
   	2104.79640 	2.4962 	63.0296 	2.6689
   	2104.94880 	2.4965 	64.5773 	2.6751
   	2105.10120 	2.4936 	62.6735 	2.6890
   	2105.25360 	2.4891 	59.0235 	2.7069
   	2105.40600 	2.4846 	55.3734 	2.7249
   	2105.55840 	2.4771 	54.8322 	2.9302
   	2105.71080 	2.4645 	59.2951 	3.4374
   	2105.86320 	2.4520 	63.7579 	3.9446
   	2106.01560 	2.4426 	67.5704 	4.4143
   	2106.16800 	2.4612 	65.6800 	4.5561
   	2106.32040 	2.4798 	63.7895 	4.6978
   	2106.47280 	2.4984 	61.8990 	4.8396
   	2106.62520 	2.5019 	62.3583 	4.6498
   	2106.77760 	2.5021 	63.3280 	4.3881
   	2106.93000 	2.5024 	64.2978 	4.1263
   	2107.08240 	2.5067 	65.6338 	3.9785
   	2107.23480 	2.5145 	67.2810 	3.9275
   	2107.38720 	2.5223 	68.9282 	3.8764
   	2107.53960 	2.5267 	69.4411 	3.7698
   	2107.69200 	2.5216 	66.7229 	3.5047
   	2107.84440 	2.5165 	64.0047 	3.2396
   	2107.99680 	2.5114 	61.2865 	2.9745
   	2108.14920 	2.5064 	61.8686 	2.8746
   	2108.30160 	2.5013 	62.5214 	2.7783
   	2108.45400 	2.4962 	63.1742 	2.6820
   	2108.60640 	2.4983 	62.0259 	2.6784
   	2108.75880 	2.5035 	60.0988 	2.7149
   	2108.91120 	2.5087 	58.1718 	2.7514
   	2109.06360 	2.5114 	57.3499 	2.8061
   	2109.21600 	2.5105 	58.0708 	2.8862
   	2109.36840 	2.5096 	58.7918 	2.9662
   	2109.52080 	2.5100 	59.6132 	3.0723
   	2109.67320 	2.5179 	61.0700 	3.3434
   	2109.82560 	2.5259 	62.5268 	3.6145
   	2109.97800 	2.5339 	63.9836 	3.8857
   	2110.13040 	2.5282 	65.0934 	3.6193
   	2110.28280 	2.5203 	66.1446 	3.2622
   	2110.43520 	2.5123 	67.1959 	2.9052
   	2110.58760 	2.5070 	67.0828 	2.7298
   	2110.74000 	2.5037 	66.1082 	2.6888
   	2110.89240 	2.5003 	65.1337 	2.6478
   	2111.04480 	2.4981 	64.7459 	2.6704
   	2111.19720 	2.4986 	65.7675 	2.8459
   	2111.34960 	2.4991 	66.7891 	3.0214
   	2111.50200 	2.4997 	67.7795 	3.1952
   	2111.65440 	2.5033 	66.4224 	3.2383
   	2111.80680 	2.5070 	65.0654 	3.2814
   	2111.95920 	2.5107 	63.7083 	3.3246
   	2112.11160 	2.5062 	64.2174 	3.1683
   	2112.26400 	2.4987 	65.4087 	2.9393
   	2112.41640 	2.4912 	66.6001 	2.7102
   	2112.56880 	2.4862 	66.9671 	2.5702
   	2112.72120 	2.4841 	66.3323 	2.5384
   	2112.87360 	2.4820 	65.6975 	2.5067
   	2113.02600 	2.4811 	65.1339 	2.4808
   	2113.17840 	2.4859 	64.9169 	2.4832
   	2113.33080 	2.4906 	64.6998 	2.4856
   	2113.48320 	2.4954 	64.4828 	2.4880
   	2113.63560 	2.4980 	61.5407 	2.5711
   	2113.78800 	2.5003 	58.2609 	2.6643
   	2113.94040 	2.5026 	54.9812 	2.7574
   	2114.09280 	2.5040 	54.0104 	2.7813
   	2114.24520 	2.5050 	54.5223 	2.7607
   	2114.39760 	2.5059 	55.0343 	2.7401
   	2114.55000 	2.5085 	55.2815 	2.7310
   	2114.70240 	2.5145 	54.9864 	2.7458
   	2114.85480 	2.5205 	54.6914 	2.7605
   	2115.00720 	2.5264 	54.4544 	2.7808
   	2115.15960 	2.5296 	55.3902 	2.9153
   	2115.31200 	2.5329 	56.3259 	3.0498
   	2115.46440 	2.5361 	57.2616 	3.1843
   	2115.61680 	2.5340 	59.1364 	3.2444
   	2115.76920 	2.5303 	61.2974 	3.2819
   	2115.92160 	2.5266 	63.4584 	3.3194
   	2116.07400 	2.5217 	63.8835 	3.2718
   	2116.22640 	2.5157 	62.4696 	3.1338
   	2116.37880 	2.5096 	61.0557 	2.9959
   	2116.53120 	2.5049 	59.2080 	2.8665
   	2116.68360 	2.5053 	55.6757 	2.7700
   	2116.83600 	2.5057 	52.1433 	2.6736
   	2116.98840 	2.5060 	48.6109 	2.5771
   	2117.14080 	2.5128 	50.3752 	2.7201
   	2117.29320 	2.5200 	52.5759 	2.8827
   	2117.44560 	2.5272 	54.7766 	3.0454
   	2117.59800 	2.5341 	56.5737 	3.1675
   	2117.75040 	2.5408 	58.1467 	3.2671
   	2117.90280 	2.5475 	59.7198 	3.3667
   	2118.05520 	2.5493 	60.1058 	3.3736
   	2118.20760 	2.5424 	58.4017 	3.2174
   	2118.36000 	2.5354 	56.6977 	3.0611
   	2118.51240 	2.5290 	55.1376 	2.9170
   	2118.66480 	2.5287 	55.2033 	2.9091
   	2118.81720 	2.5284 	55.2690 	2.9012
   	2118.96960 	2.5281 	55.3347 	2.8933
   	2119.12200 	2.5305 	57.4338 	2.9203
   	2119.27440 	2.5335 	60.0395 	2.9560
   	2119.42680 	2.5365 	62.6452 	2.9918
   	2119.57920 	2.5386 	64.2657 	3.0139
   	2119.73160 	2.5396 	64.9755 	3.0236
   	2119.88400 	2.5407 	65.6854 	3.0333
   	2120.03640 	2.5405 	65.9465 	3.0503
   	2120.18880 	2.5363 	64.7778 	3.0908
   	2120.34120 	2.5320 	63.6091 	3.1313
   	2120.49360 	2.5277 	62.4404 	3.1718
   	2120.64600 	2.5290 	62.3039 	3.1624
   	2120.79840 	2.5305 	62.2125 	3.1507
   	2120.95080 	2.5319 	62.1212 	3.1391
   	2121.10320 	2.5303 	61.8233 	3.0603
   	2121.25560 	2.5271 	61.4270 	2.9495
   	2121.40800 	2.5239 	61.0306 	2.8387
   	2121.56040 	2.5218 	60.7529 	2.7869
   	2121.71280 	2.5213 	60.6562 	2.8252
   	2121.86520 	2.5208 	60.5594 	2.8635
   	2122.01760 	2.5206 	60.4266 	2.9054
   	2122.17000 	2.5230 	60.0180 	2.9743
   	2122.32240 	2.5254 	59.6093 	3.0433
   	2122.47480 	2.5278 	59.2007 	3.1123
   	2122.62720 	2.5274 	56.8286 	3.0834
   	2122.77960 	2.5263 	54.0674 	3.0350
   	2122.93200 	2.5252 	51.3063 	2.9867
   	2123.08440 	2.5261 	50.0301 	3.0229
   	2123.23680 	2.5286 	49.9503 	3.1272
   	2123.38920 	2.5311 	49.8705 	3.2316
   	2123.54160 	2.5331 	49.8125 	3.3033
   	2123.69400 	2.5339 	49.8125 	3.2880
   	2123.84640 	2.5347 	49.8125 	3.2727
   	2123.99880 	2.5355 	49.8125 	3.2574
   	2124.15120 	2.5349 	49.9197 	3.1970
   	2124.30360 	2.5343 	50.0278 	3.1362
   	2124.45600 	2.5337 	50.1359 	3.0755
   	2124.60840 	2.5325 	52.3580 	3.0180
   	2124.76080 	2.5310 	55.4383 	2.9619
   	2124.91320 	2.5295 	58.5185 	2.9057
   	2125.06560 	2.5296 	60.2430 	2.8897
   	2125.21800 	2.5318 	60.1735 	2.9268
   	2125.37040 	2.5340 	60.1040 	2.9639
   	2125.52280 	2.5356 	60.1473 	2.9994
   	2125.67520 	2.5341 	60.8312 	3.0257
   	2125.82760 	2.5326 	61.5152 	3.0519
   	2125.98000 	2.5312 	62.1991 	3.0782
   	2126.13240 	2.5321 	63.1589 	3.1044
   	2126.28480 	2.5333 	64.1604 	3.1305
   	2126.43720 	2.5346 	65.1619 	3.1567
   	2126.58960 	2.5341 	63.7535 	3.1690
   	2126.74200 	2.5324 	60.6561 	3.1715
   	2126.89440 	2.5307 	57.5586 	3.1741
