~Version Information Block
VERS .                 2.00:  CWLS LOG ASCII STANDARD - VERSION 2.00
WRAP .                   NO:  One line per depth step
~Well Information Block
#MNEM.UNIT        Data Type   Information
#---------- ----------------  -----------
STRT .M          1646.07240:  START DEPTH
STOP .M          2270.91240:  STOP DEPTH
STEP .M             0.15240:  STEP
NULL .              -999.25:  NULL VALUE
COMP .                     :  COMPANY
WELL .             Test_LAS:  WELL
FLD  .                     :  FIELD
LOC  .                     :  LOCATION
CTRY .                     :  COUNTRY
STAT .                     :  STATE
CNTY .                     :  COUNTY
SRVC .     Petroleum Corporation of NZ Exploration Ltd:  SERVICE COMPANY
DATE .                     :  DATE
API  .                     :  API NUMBER
UWI  .         100000113635:  UNIQUE WELL ID
LATI .          -39.0898733:  LATITUDE
LONG .           174.332882:  LONGITUDE
~Curve Information Block
#MNEM.UNIT         API CODE   Curve Description
#---------- ----------------  -----------------
DEPTH.M                    :  
DENS .G/C3                 :  (RHOB)
GR   .GAPI                 :  (GR)
RESD .OHMM                 :  (LLD)
~Parameter Information Block
#MNEM.UNIT            Value   Description
#---------- ----------------  -----------
CUR_INT_BOT.M                2271:  Current interpolated bottom
PROJECT.     New Zealand Log QC Project:  
SET  .     A0_FINAL_INTER_REF_D:  
ELEVATION_AMSL.M               128.3:  Elevation above mean sea level
ELEVATION_REF.                   KB:  Measurement reference
FORMATION_AT_TD.            Mangahewa:  Formation at TD
GL_ELEVATION_AMSL.M            123.4000:  Ground level elevation above mean sea level
KICK_OFF_DATE.           12/06/1987:  Kick off date
KICK_OFF_DEPTH.M                1843:  Kick off depth
LICENCE_NUMBER.             PML98086:  Licence number
ONSHORE_OR_OFFSHORE.              Onshore:  Onshore/offshore
PARENT_WELL.              McKee-7:  Parent well
PR_NUMBER.               PR1814:  Petroleum report number
STATUS_AT_COMPLETION.     Plugged and abandoned:  Status at completion
TD_DATE.           15/06/1987:  Total depth date
TOTAL_DEPTH_DRILLED.M                2271:  Total depth drilled
~Other Information Block
# 
~A           DEPTH           DENS              GR            RESD
# ...
   	2216.81040 	2.3160 	43.6675 	57.8527
   	2216.96280 	2.3156 	46.7259 	57.0032
   	2217.11520 	2.3158 	47.2194 	56.7463
   	2217.26760 	2.3161 	46.8846 	56.6809
   	2217.42000 	2.3165 	46.5498 	56.6155
   	2217.57240 	2.3150 	45.8948 	56.0465
   	2217.72480 	2.3113 	44.8860 	54.9213
   	2217.87720 	2.3077 	43.8772 	53.7961
   	2218.02960 	2.3043 	43.2096 	53.0397
   	2218.18200 	2.3023 	43.9576 	53.8134
   	2218.33440 	2.3004 	44.7056 	54.5870
   	2218.48680 	2.2984 	45.4537 	55.3606
   	2218.63920 	2.2978 	43.5817 	56.0551
   	2218.79160 	2.2975 	41.4613 	56.7420
   	2218.94400 	2.2971 	39.3408 	57.4290
   	2219.09640 	2.2980 	39.5310 	57.9019
   	2219.24880 	2.2997 	41.0635 	58.2504
   	2219.40120 	2.3013 	42.5960 	58.5989
   	2219.55360 	2.3039 	43.3160 	58.2825
   	2219.70600 	2.3080 	42.5384 	56.7405
   	2219.85840 	2.3122 	41.7608 	55.1985
   	2220.01080 	2.3158 	41.0845 	53.5402
   	2220.16320 	2.3129 	41.7364 	50.3577
   	2220.31560 	2.3100 	42.3882 	47.1752
   	2220.46800 	2.3071 	43.0401 	43.9927
   	2220.62040 	2.3092 	43.6237 	43.8553
   	2220.77280 	2.3126 	44.1891 	44.5271
   	2220.92520 	2.3160 	44.7546 	45.1990
   	2221.07760 	2.3149 	45.2282 	46.3108
   	2221.23000 	2.3093 	45.6133 	47.8468
   	2221.38240 	2.3037 	45.9983 	49.3827
   	2221.53480 	2.3008 	46.4270 	50.4081
   	2221.68720 	2.3070 	47.0033 	49.7078
   	2221.83960 	2.3132 	47.5796 	49.0076
   	2221.99200 	2.3193 	48.1559 	48.3074
   	2222.14440 	2.3161 	47.3050 	47.4549
   	2222.29680 	2.3124 	46.3751 	46.5939
   	2222.44920 	2.3087 	45.4452 	45.7329
   	2222.60160 	2.3050 	45.6454 	46.7818
   	2222.75400 	2.3013 	46.4109 	48.7857
   	2222.90640 	2.2976 	47.1763 	50.7896
   	2223.05880 	2.2951 	47.1548 	53.4038
   	2223.21120 	2.2945 	45.8809 	56.9892
   	2223.36360 	2.2940 	44.6069 	60.5747
   	2223.51600 	2.2933 	43.1593 	64.1557
   	2223.66840 	2.2912 	40.2309 	67.6992
   	2223.82080 	2.2890 	37.3024 	71.2427
   	2223.97320 	2.2869 	34.3740 	74.7862
   	2224.12560 	2.2832 	34.6125 	82.0112
   	2224.27800 	2.2792 	35.5268 	90.0219
   	2224.43040 	2.2752 	36.4411 	98.0325
   	2224.58280 	2.2768 	36.9586 	102.3347
   	2224.73520 	2.2831 	37.1428 	103.5196
   	2224.88760 	2.2894 	37.3269 	104.7045
   	2225.04000 	2.2924 	37.2527 	103.6843
   	2225.19240 	2.2863 	36.4524 	96.4681
   	2225.34480 	2.2802 	35.6521 	89.2519
   	2225.49720 	2.2741 	34.8519 	82.0357
   	2225.64960 	2.2909 	36.8341 	78.2926
   	2225.80200 	2.3082 	38.8685 	74.6145
   	2225.95440 	2.3255 	40.9028 	70.9364
   	2226.10680 	2.3235 	42.0203 	72.6025
   	2226.25920 	2.3133 	42.7464 	76.5502
   	2226.41160 	2.3032 	43.4725 	80.4980
   	2226.56400 	2.2966 	43.3383 	86.4118
   	2226.71640 	2.2949 	42.0159 	95.0412
   	2226.86880 	2.2932 	40.6935 	103.6706
   	2227.02120 	2.2927 	39.7581 	110.6174
   	2227.17360 	2.2994 	41.2176 	107.1509
   	2227.32600 	2.3061 	42.6771 	103.6844
   	2227.47840 	2.3128 	44.1365 	100.2179
   	2227.63080 	2.3050 	45.9525 	93.3098
   	2227.78320 	2.2948 	47.8274 	85.8334
   	2227.93560 	2.2846 	49.7022 	78.3570
   	2228.08800 	2.2828 	50.2891 	74.0271
   	2228.24040 	2.2870 	49.9334 	71.9998
   	2228.39280 	2.2912 	49.5777 	69.9724
   	2228.54520 	2.2953 	48.8805 	68.8420
   	2228.69760 	2.2991 	47.3734 	69.8388
   	2228.85000 	2.3028 	45.8663 	70.8356
   	2229.00240 	2.3065 	44.3866 	71.8077
   	2229.15480 	2.3051 	44.6234 	71.2400
   	2229.30720 	2.3037 	44.8603 	70.6723
   	2229.45960 	2.3024 	45.0971 	70.1045
   	2229.61200 	2.3008 	46.3815 	69.6406
   	2229.76440 	2.2991 	48.0438 	69.2141
   	2229.91680 	2.2974 	49.7061 	68.7876
   	2230.06920 	2.2972 	50.7836 	68.9892
   	2230.22160 	2.2987 	51.1579 	69.9460
   	2230.37400 	2.3002 	51.5323 	70.9028
   	2230.52640 	2.3013 	51.3761 	72.0800
   	2230.67880 	2.3002 	48.6880 	74.3088
   	2230.83120 	2.2991 	46.0000 	76.5377
   	2230.98360 	2.2980 	43.3119 	78.7665
   	2231.13600 	2.2977 	43.8740 	75.3908
   	2231.28840 	2.2976 	44.8279 	71.3392
   	2231.44080 	2.2975 	45.7819 	67.2877
   	2231.59320 	2.2946 	46.9796 	63.5615
   	2231.74560 	2.2900 	48.3320 	60.0420
   	2231.89800 	2.2854 	49.6844 	56.5225
   	2232.05040 	2.2847 	50.8607 	53.6750
   	2232.20280 	2.2918 	51.6804 	52.1874
   	2232.35520 	2.2989 	52.5000 	50.6998
   	2232.50760 	2.3056 	53.2666 	49.2772
   	2232.66000 	2.3049 	53.0212 	49.0935
   	2232.81240 	2.3042 	52.7758 	48.9098
   	2232.96480 	2.3035 	52.5303 	48.7262
   	2233.11720 	2.3029 	52.7018 	50.2876
   	2233.26960 	2.3023 	52.9984 	52.3732
   	2233.42200 	2.3017 	53.2950 	54.4587
   	2233.57440 	2.2999 	53.5153 	55.7088
   	2233.72680 	2.2969 	53.6554 	56.0830
   	2233.87920 	2.2938 	53.7955 	56.4573
   	2234.03160 	2.2915 	54.0443 	56.9960
   	2234.18400 	2.2917 	54.7087 	58.1638
   	2234.33640 	2.2920 	55.3732 	59.3315
   	2234.48880 	2.2922 	56.0376 	60.4993
   	2234.64120 	2.2932 	53.9605 	61.6621
   	2234.79360 	2.2942 	51.6661 	62.8245
   	2234.94600 	2.2952 	49.3716 	63.9869
   	2235.09840 	2.2983 	48.4052 	66.8949
   	2235.25080 	2.3026 	48.1675 	70.7608
   	2235.40320 	2.3069 	47.9299 	74.6267
   	2235.55560 	2.3066 	47.7817 	78.6537
   	2235.70800 	2.2981 	47.7895 	82.9610
   	2235.86040 	2.2895 	47.7972 	87.2683
   	2236.01280 	2.2819 	47.8485 	91.2988
   	2236.16520 	2.2832 	48.3753 	92.3108
   	2236.31760 	2.2846 	48.9021 	93.3228
   	2236.47000 	2.2859 	49.4290 	94.3348
   	2236.62240 	2.2884 	47.5146 	97.7335
   	2236.77480 	2.2911 	45.0019 	101.7172
   	2236.92720 	2.2938 	42.4892 	105.7009
   	2237.07960 	2.2929 	41.1783 	111.8973
   	2237.23200 	2.2888 	40.9666 	120.1174
   	2237.38440 	2.2846 	40.7548 	128.3375
   	2237.53680 	2.2818 	40.4984 	136.8259
   	2237.68920 	2.2829 	40.1013 	146.1570
   	2237.84160 	2.2841 	39.7042 	155.4882
   	2237.99400 	2.2853 	39.3072 	164.8194
   	2238.14640 	2.2843 	39.3003 	174.6128
   	2238.29880 	2.2833 	39.3094 	184.4251
   	2238.45120 	2.2823 	39.3185 	194.2375
   	2238.60360 	2.2831 	38.9246 	191.2928
   	2238.75600 	2.2848 	38.3408 	182.3391
   	2238.90840 	2.2865 	37.7570 	173.3853
   	2239.06080 	2.2897 	37.6944 	159.6640
   	2239.21320 	2.2949 	38.4171 	138.7598
   	2239.36560 	2.3001 	39.1398 	117.8556
   	2239.51800 	2.3054 	39.7060 	97.3984
   	2239.67040 	2.3104 	39.1034 	80.2781
   	2239.82280 	2.3154 	38.5008 	63.1578
   	2239.97520 	2.3204 	37.8982 	46.0375
   	2240.12760 	2.3292 	37.5020 	39.6546
   	2240.28000 	2.3387 	37.1459 	35.3586
   	2240.43240 	2.3483 	36.7899 	31.0626
   	2240.58480 	2.3566 	40.3958 	25.7394
   	2240.73720 	2.3639 	47.1601 	19.5974
   	2240.88960 	2.3712 	53.9244 	13.4554
   	2241.04200 	2.3883 	61.0967 	8.8393
   	2241.19440 	2.4313 	69.3415 	8.2339
   	2241.34680 	2.4743 	77.5864 	7.6284
   	2241.49920 	2.5173 	85.8312 	7.0230
   	2241.65160 	2.5103 	87.4228 	7.2366
   	2241.80400 	2.5031 	88.9793 	7.4544
   	2241.95640 	2.4960 	90.5357 	7.6723
   	2242.10880 	2.4871 	90.3620 	7.8559
   	2242.26120 	2.4775 	89.4950 	8.0257
   	2242.41360 	2.4680 	88.6279 	8.1956
   	2242.56600 	2.4563 	87.9643 	8.2715
   	2242.71840 	2.4419 	87.5670 	8.2243
   	2242.87080 	2.4275 	87.1697 	8.1772
   	2243.02320 	2.4170 	86.9564 	8.1396
   	2243.17560 	2.4282 	87.7677 	8.1552
   	2243.32800 	2.4395 	88.5790 	8.1707
   	2243.48040 	2.4507 	89.3902 	8.1863
   	2243.63280 	2.4536 	90.4273 	8.2737
   	2243.78520 	2.4552 	91.4977 	8.3717
   	2243.93760 	2.4569 	92.5681 	8.4698
   	2244.09000 	2.4426 	93.7799 	8.4829
   	2244.24240 	2.4173 	95.0899 	8.4372
   	2244.39480 	2.3920 	96.3998 	8.3915
   	2244.54720 	2.3178 	94.7322 	8.3194
   	2244.69960 	2.1347 	86.4283 	8.1883
   	2244.85200 	1.9517 	78.1244 	8.0573
   	2245.00440 	1.7694 	69.6003 	17.5066
   	2245.15680 	1.6135 	53.6695 	349.2045
   	2245.30920 	1.4575 	37.7386 	680.9025
   	2245.46160 	1.3015 	21.8077 	1012.6004
   	2245.61400 	1.2575 	16.1486 	2165.1221
   	2245.76640 	1.2512 	13.9496 	3594.1318
   	2245.91880 	1.2449 	11.7505 	5023.1416
   	2246.07120 	1.2381 	11.4078 	5161.8721
   	2246.22360 	1.2306 	13.1820 	3829.1045
   	2246.37600 	1.2230 	14.9563 	2496.3369
