~Version Information Block
VERS .                 2.00:  CWLS LOG ASCII STANDARD - VERSION 2.00
WRAP .                   NO:  One line per depth step
~Well Information Block
#MNEM.UNIT        Data Type   Information
#---------- ----------------  -----------
STRT .M          1646.07240:  START DEPTH
STOP .M          2270.91240:  STOP DEPTH
STEP .M             0.15240:  STEP
NULL .              -999.25:  NULL VALUE
COMP .                     :  COMPANY
WELL .             Test_LAS:  WELL
FLD  .                     :  FIELD
LOC  .                     :  LOCATION
CTRY .                     :  COUNTRY
STAT .                     :  STATE
CNTY .                     :  COUNTY
SRVC .     Petroleum Corporation of NZ Exploration Ltd:  SERVICE COMPANY
DATE .                     :  DATE
API  .                     :  API NUMBER
UWI  .         100000113635:  UNIQUE WELL ID
LATI .          -39.0898733:  LATITUDE
LONG .           174.332882:  LONGITUDE
~Curve Information Block
#MNEM.UNIT         API CODE   Curve Description
#---------- ----------------  -----------------
DEPTH.M                    :  
DENS .G/C3                 :  (RHOB)
GR   .GAPI                 :  (GR)
RESD .OHMM                 :  (LLD)
~Parameter Information Block
#MNEM.UNIT            Value   Description
#---------- ----------------  -----------
CUR_INT_BOT.M                2271:  Current interpolated bottom
PROJECT.     New Zealand Log QC Project:  
SET  .     A0_FINAL_INTER_REF_D:  
ELEVATION_AMSL.M               128.3:  Elevation above mean sea level
ELEVATION_REF.                   KB:  Measurement reference
FORMATION_AT_TD.            Mangahewa:  Formation at TD
GL_ELEVATION_AMSL.M            123.4000:  Ground level elevation above mean sea level
KICK_OFF_DATE.           12/06/1987:  Kick off date
KICK_OFF_DEPTH.M                1843:  Kick off depth
LICENCE_NUMBER.             PML98086:  Licence number
ONSHORE_OR_OFFSHORE.              Onshore:  Onshore/offshore
PARENT_WELL.              McKee-7:  Parent well
PR_NUMBER.               PR1814:  Petroleum report number
STATUS_AT_COMPLETION.     Plugged and abandoned:  Status at completion
TD_DATE.           15/06/1987:  Total depth date
TOTAL_DEPTH_DRILLED.M                2271:  Total depth drilled
~Other Information Block
# 
~A           DEPTH           DENS              GR            RESD
# ...
   	2127.04680 	2.5302 	55.5336 	3.1759
   	2127.19920 	2.5326 	55.9282 	3.1759
   	2127.35160 	2.5351 	56.3229 	3.1759
   	2127.50400 	2.5375 	56.6984 	3.1770
   	2127.65640 	2.5401 	56.3635 	3.2153
   	2127.80880 	2.5427 	56.0286 	3.2536
   	2127.96120 	2.5452 	55.6937 	3.2919
   	2128.11360 	2.5505 	55.2223 	3.3173
   	2128.26600 	2.5567 	54.7042 	3.3382
   	2128.41840 	2.5628 	54.1861 	3.3591
   	2128.57080 	2.5641 	54.6871 	3.3178
   	2128.72320 	2.5596 	56.3628 	3.2046
   	2128.87560 	2.5552 	58.0385 	3.0913
   	2129.02800 	2.5507 	59.1464 	2.9979
   	2129.18040 	2.5461 	57.7321 	2.9920
   	2129.33280 	2.5415 	56.3177 	2.9862
   	2129.48520 	2.5369 	54.9033 	2.9803
   	2129.63760 	2.5327 	54.5281 	2.9933
   	2129.79000 	2.5285 	54.2647 	3.0082
   	2129.94240 	2.5244 	54.0013 	3.0232
   	2130.09480 	2.5237 	54.8499 	3.0181
   	2130.24720 	2.5251 	56.3742 	3.0009
   	2130.39960 	2.5266 	57.8984 	2.9836
   	2130.55200 	2.5297 	58.7825 	2.9815
   	2130.70440 	2.5361 	58.4305 	3.0085
   	2130.85680 	2.5424 	58.0784 	3.0355
   	2131.00920 	2.5485 	57.7851 	3.0600
   	2131.16160 	2.5513 	58.4057 	3.0454
   	2131.31400 	2.5542 	59.0262 	3.0307
   	2131.46640 	2.5570 	59.6468 	3.0161
   	2131.61880 	2.5553 	59.3701 	3.0131
   	2131.77120 	2.5523 	58.8397 	3.0135
   	2131.92360 	2.5493 	58.3093 	3.0138
   	2132.07600 	2.5459 	57.8286 	3.0025
   	2132.22840 	2.5422 	57.3981 	2.9797
   	2132.38080 	2.5385 	56.9675 	2.9569
   	2132.53320 	2.5365 	56.4094 	2.9472
   	2132.68560 	2.5403 	55.3932 	2.9851
   	2132.83800 	2.5442 	54.3771 	3.0229
   	2132.99040 	2.5480 	53.3610 	3.0607
   	2133.14280 	2.5489 	52.7025 	3.1463
   	2133.29520 	2.5496 	52.0680 	3.2350
   	2133.44760 	2.5503 	51.4335 	3.3237
   	2133.60000 	2.5527 	49.8274 	3.4257
   	2133.75240 	2.5560 	47.7121 	3.5346
   	2133.90480 	2.5593 	45.5968 	3.6435
   	2134.05720 	2.5611 	45.1892 	3.7531
   	2134.20960 	2.5602 	47.6237 	3.8637
   	2134.36200 	2.5594 	50.0582 	3.9744
   	2134.51440 	2.5587 	52.1993 	4.0675
   	2134.66680 	2.5599 	51.5284 	3.9929
   	2134.81920 	2.5611 	50.8574 	3.9183
   	2134.97160 	2.5623 	50.1865 	3.8436
   	2135.12400 	2.5597 	50.2051 	3.7497
   	2135.27640 	2.5563 	50.3816 	3.6513
   	2135.42880 	2.5529 	50.5581 	3.5529
   	2135.58120 	2.5532 	49.5894 	3.6029
   	2135.73360 	2.5567 	47.6164 	3.7831
   	2135.88600 	2.5602 	45.6435 	3.9633
   	2136.03840 	2.5653 	44.4811 	4.1335
   	2136.19080 	2.5747 	45.7253 	4.2742
   	2136.34320 	2.5842 	46.9695 	4.4148
   	2136.49560 	2.5936 	48.2137 	4.5554
   	2136.64800 	2.5935 	49.2999 	4.6159
   	2136.80040 	2.5931 	50.3814 	4.6740
   	2136.95280 	2.5927 	51.4628 	4.7321
   	2137.10520 	2.5893 	50.9932 	4.6333
   	2137.25760 	2.5847 	49.8276 	4.4642
   	2137.41000 	2.5800 	48.6620 	4.2951
   	2137.56240 	2.5771 	47.8176 	4.2684
   	2137.71480 	2.5766 	47.4365 	4.4472
   	2137.86720 	2.5761 	47.0554 	4.6260
   	2138.01960 	2.5767 	46.6931 	4.8095
   	2138.17200 	2.5855 	46.4588 	5.0251
   	2138.32440 	2.5942 	46.2245 	5.2407
   	2138.47680 	2.6030 	45.9902 	5.4563
   	2138.62920 	2.6032 	46.4153 	5.5623
   	2138.78160 	2.6018 	46.9588 	5.6487
   	2138.93400 	2.6004 	47.5022 	5.7351
   	2139.08640 	2.6044 	47.1472 	5.7091
   	2139.23880 	2.6125 	46.1057 	5.5971
   	2139.39120 	2.6207 	45.0643 	5.4852
   	2139.54360 	2.6259 	43.9521 	5.4503
   	2139.69600 	2.6237 	42.6634 	5.6077
   	2139.84840 	2.6215 	41.3747 	5.7651
   	2140.00080 	2.6194 	40.0967 	5.9218
   	2140.15320 	2.6196 	40.8485 	5.9510
   	2140.30560 	2.6199 	41.6004 	5.9801
   	2140.45800 	2.6201 	42.3523 	6.0092
   	2140.61040 	2.6162 	41.0638 	6.0839
   	2140.76280 	2.6107 	38.9989 	6.1760
   	2140.91520 	2.6052 	36.9341 	6.2681
   	2141.06760 	2.6045 	35.7291 	6.3536
   	2141.22000 	2.6100 	35.6028 	6.4311
   	2141.37240 	2.6155 	35.4765 	6.5086
   	2141.52480 	2.6199 	35.2975 	6.5938
   	2141.67720 	2.6189 	34.8478 	6.7188
   	2141.82960 	2.6179 	34.3981 	6.8439
   	2141.98200 	2.6168 	33.9484 	6.9689
   	2142.13440 	2.6221 	35.1089 	7.5725
   	2142.28680 	2.6282 	36.4852 	8.2401
   	2142.43920 	2.6343 	37.8614 	8.9078
   	2142.59160 	2.6394 	39.1978 	9.0965
   	2142.74400 	2.6437 	40.5078 	8.9674
   	2142.89640 	2.6480 	41.8178 	8.8383
   	2143.04880 	2.6492 	43.0965 	8.6778
   	2143.20120 	2.6437 	44.3087 	8.4507
   	2143.35360 	2.6383 	45.5209 	8.2235
   	2143.50600 	2.6330 	46.7855 	8.0140
   	2143.65840 	2.6326 	49.3296 	8.2359
   	2143.81080 	2.6322 	51.8736 	8.4578
   	2143.96320 	2.6318 	54.4177 	8.6798
   	2144.11560 	2.6286 	58.7937 	9.2890
   	2144.26800 	2.6245 	63.7530 	10.0214
   	2144.42040 	2.6204 	68.7123 	10.7539
   	2144.57280 	2.6166 	71.2968 	11.6055
   	2144.72520 	2.6132 	71.2848 	12.5873
   	2144.87760 	2.6098 	71.2728 	13.5691
   	2145.03000 	2.6064 	71.2764 	14.5927
   	2145.18240 	2.6033 	71.3440 	15.7865
   	2145.33480 	2.6001 	71.4116 	16.9802
   	2145.48720 	2.5970 	71.4792 	18.1740
   	2145.63960 	2.6006 	72.9863 	19.5409
   	2145.79200 	2.6048 	74.6254 	20.9236
   	2145.94440 	2.6091 	76.2645 	22.3064
   	2146.09680 	2.6070 	81.7813 	20.1407
   	2146.24920 	2.6012 	89.5252 	15.9367
   	2146.40160 	2.5954 	97.2692 	11.7328
   	2146.55400 	2.5857 	101.8009 	8.5498
   	2146.70640 	2.5692 	100.4792 	7.2272
   	2146.85880 	2.5526 	99.1575 	5.9046
   	2147.01120 	2.5370 	97.7238 	4.6843
   	2147.16360 	2.5340 	94.8789 	4.7549
   	2147.31600 	2.5310 	92.0340 	4.8255
   	2147.46840 	2.5280 	89.1891 	4.8961
   	2147.62080 	2.5299 	88.8875 	4.9399
   	2147.77320 	2.5331 	89.2513 	4.9767
   	2147.92560 	2.5363 	89.6150 	5.0135
   	2148.07800 	2.5361 	89.9520 	5.1229
   	2148.23040 	2.5326 	90.2636 	5.3016
   	2148.38280 	2.5290 	90.5752 	5.4803
   	2148.53520 	2.5320 	90.2932 	5.6418
   	2148.68760 	2.5567 	88.0348 	5.7459
   	2148.84000 	2.5814 	85.7765 	5.8500
   	2148.99240 	2.6061 	83.5182 	5.9541
   	2149.14480 	2.5929 	85.0223 	5.9175
   	2149.29720 	2.5777 	86.7239 	5.8735
   	2149.44960 	2.5625 	88.4255 	5.8294
   	2149.60200 	2.5498 	89.7605 	5.8580
   	2149.75440 	2.5382 	90.9145 	5.9225
   	2149.90680 	2.5267 	92.0684 	5.9870
   	2150.05920 	2.5206 	91.6860 	6.0728
   	2150.21160 	2.5230 	88.8850 	6.1923
   	2150.36400 	2.5254 	86.0840 	6.3117
   	2150.51640 	2.5283 	83.5735 	6.4179
   	2150.66880 	2.5348 	83.4726 	6.4150
   	2150.82120 	2.5412 	83.3716 	6.4121
   	2150.97360 	2.5477 	83.2707 	6.4092
   	2151.12600 	2.5479 	84.5112 	6.3469
   	2151.27840 	2.5468 	86.0329 	6.2722
   	2151.43080 	2.5457 	87.5545 	6.1975
   	2151.58320 	2.5447 	87.8157 	6.2234
   	2151.73560 	2.5438 	87.0285 	6.3329
   	2151.88800 	2.5429 	86.2414 	6.4424
   	2152.04040 	2.5413 	86.4337 	6.5061
   	2152.19280 	2.5381 	89.3411 	6.4425
   	2152.34520 	2.5348 	92.2485 	6.3790
   	2152.49760 	2.5315 	95.1559 	6.3154
   	2152.65000 	2.5306 	91.9323 	6.2149
   	2152.80240 	2.5298 	88.6107 	6.1139
   	2152.95480 	2.5289 	85.2890 	6.0128
   	2153.10720 	2.5307 	84.4017 	6.0011
   	2153.25960 	2.5337 	84.5408 	6.0271
   	2153.41200 	2.5367 	84.6799 	6.0531
   	2153.56440 	2.5393 	84.6870 	6.0670
   	2153.71680 	2.5414 	84.5135 	6.0644
   	2153.86920 	2.5435 	84.3401 	6.0619
   	2154.02160 	2.5450 	84.4810 	6.0610
   	2154.17400 	2.5426 	86.5248 	6.0707
   	2154.32640 	2.5402 	88.5686 	6.0804
   	2154.47880 	2.5378 	90.6124 	6.0900
   	2154.63120 	2.5341 	91.0523 	6.1634
   	2154.78360 	2.5302 	91.2331 	6.2470
   	2154.93600 	2.5263 	91.4138 	6.3307
   	2155.08840 	2.5260 	90.0087 	6.4126
   	2155.24080 	2.5285 	87.4553 	6.4931
   	2155.39320 	2.5309 	84.9019 	6.5737
   	2155.54560 	2.5404 	82.3577 	6.7952
   	2155.69800 	2.5664 	79.8348 	7.3467
   	2155.85040 	2.5925 	77.3119 	7.8981
   	2156.00280 	2.6180 	74.7964 	8.4396
   	2156.15520 	2.6151 	72.6730 	8.4424
   	2156.30760 	2.6123 	70.5496 	8.4453
   	2156.46000 	2.6094 	68.4262 	8.4482
   	2156.61240 	2.6032 	64.9862 	8.6200
   	2156.76480 	2.5958 	61.0776 	8.8520
   	2156.91720 	2.5884 	57.1690 	9.0840
   	2157.06960 	2.5980 	52.8025 	12.0705
   	2157.22200 	2.6277 	47.8913 	18.3338
   	2157.37440 	2.6574 	42.9801 	24.5971
