~Version Information Block
VERS .                 2.00:  CWLS LOG ASCII STANDARD - VERSION 2.00
WRAP .                   NO:  One line per depth step
~Well Information Block
#MNEM.UNIT        Data Type   Information
#---------- ----------------  -----------
STRT .M          1646.07240:  START DEPTH
STOP .M          2270.91240:  STOP DEPTH
STEP .M             0.15240:  STEP
NULL .              -999.25:  NULL VALUE
COMP .                     :  COMPANY
WELL .             Test_LAS:  WELL
FLD  .                     :  FIELD
LOC  .                     :  LOCATION
CTRY .                     :  COUNTRY
STAT .                     :  STATE
CNTY .                     :  COUNTY
SRVC .     Petroleum Corporation of NZ Exploration Ltd:  SERVICE COMPANY
DATE .                     :  DATE
API  .                     :  API NUMBER
UWI  .         100000113635:  UNIQUE WELL ID
LATI .          -39.0898733:  LATITUDE
LONG .           174.332882:  LONGITUDE
~Curve Information Block
#MNEM.UNIT         API CODE   Curve Description
#---------- ----------------  -----------------
DEPTH.M                    :  
DENS .G/C3                 :  (RHOB)
GR   .GAPI                 :  (GR)
RESD .OHMM                 :  (LLD)
~Parameter Information Block
#MNEM.UNIT            Value   Description
#---------- ----------------  -----------
CUR_INT_BOT.M                2271:  Current interpolated bottom
PROJECT.     New Zealand Log QC Project:  
SET  .     A0_FINAL_INTER_REF_D:  
ELEVATION_AMSL.M               128.3:  Elevation above mean sea level
ELEVATION_REF.                   KB:  Measurement reference
FORMATION_AT_TD.            Mangahewa:  Formation at TD
GL_ELEVATION_AMSL.M            123.4000:  Ground level elevation above mean sea level
KICK_OFF_DATE.           12/06/1987:  Kick off date
KICK_OFF_DEPTH.M                1843:  Kick off depth
LICENCE_NUMBER.             PML98086:  Licence number
ONSHORE_OR_OFFSHORE.              Onshore:  Onshore/offshore
PARENT_WELL.              McKee-7:  Parent well
PR_NUMBER.               PR1814:  Petroleum report number
STATUS_AT_COMPLETION.     Plugged and abandoned:  Status at completion
TD_DATE.           15/06/1987:  Total depth date
TOTAL_DEPTH_DRILLED.M                2271:  Total depth drilled
~Other Information Block
# 
~A           DEPTH           DENS              GR            RESD
# ...
   	2187.09240 	2.4133 	49.8270 	50.1084
   	2187.24480 	2.3968 	48.7097 	49.2628
   	2187.39720 	2.3802 	47.5924 	48.4172
   	2187.54960 	2.3712 	47.4045 	47.4346
   	2187.70200 	2.3777 	49.1429 	46.1681
   	2187.85440 	2.3842 	50.8812 	44.9017
   	2188.00680 	2.3905 	52.4695 	43.6807
   	2188.15920 	2.3928 	50.8434 	43.4324
   	2188.31160 	2.3951 	49.2174 	43.1841
   	2188.46400 	2.3974 	47.5914 	42.9358
   	2188.61640 	2.3936 	48.4708 	42.1210
   	2188.76880 	2.3878 	50.1252 	41.1311
   	2188.92120 	2.3820 	51.7796 	40.1411
   	2189.07360 	2.3823 	51.8181 	39.7534
   	2189.22600 	2.3891 	50.1265 	40.0106
   	2189.37840 	2.3959 	48.4349 	40.2679
   	2189.53080 	2.4010 	47.3142 	40.5888
   	2189.68320 	2.4000 	48.4474 	41.1614
   	2189.83560 	2.3989 	49.5806 	41.7340
   	2189.98800 	2.3978 	50.7137 	42.3066
   	2190.14040 	2.3865 	50.3928 	41.2920
   	2190.29280 	2.3742 	49.9476 	40.1418
   	2190.44520 	2.3620 	49.5024 	38.9917
   	2190.59760 	2.3609 	48.8682 	38.5519
   	2190.75000 	2.3662 	48.1279 	38.5111
   	2190.90240 	2.3714 	47.3876 	38.4702
   	2191.05480 	2.3752 	46.8271 	38.5028
   	2191.20720 	2.3766 	46.5870 	38.6662
   	2191.35960 	2.3780 	46.3469 	38.8295
   	2191.51200 	2.3788 	46.2023 	38.9929
   	2191.66440 	2.3729 	47.1746 	39.1559
   	2191.81680 	2.3670 	48.1469 	39.3189
   	2191.96920 	2.3611 	49.1192 	39.4820
   	2192.12160 	2.3601 	49.2204 	38.9224
   	2192.27400 	2.3603 	49.1011 	38.1797
   	2192.42640 	2.3606 	48.9817 	37.4371
   	2192.57880 	2.3600 	48.8406 	36.9254
   	2192.73120 	2.3587 	48.6793 	36.6294
   	2192.88360 	2.3575 	48.5181 	36.3334
   	2193.03600 	2.3574 	48.1427 	35.9344
   	2193.18840 	2.3610 	47.0749 	35.2027
   	2193.34080 	2.3647 	46.0071 	34.4709
   	2193.49320 	2.3683 	44.9394 	33.7392
   	2193.64560 	2.3876 	46.8802 	33.5733
   	2193.79800 	2.4076 	48.9617 	33.4339
   	2193.95040 	2.4276 	51.0431 	33.2945
   	2194.10280 	2.4825 	49.5699 	74.4397
   	2194.25520 	2.5542 	46.3816 	135.5042
   	2194.40760 	2.6260 	43.1933 	196.5687
   	2194.56000 	2.6509 	41.1525 	227.3526
   	2194.71240 	2.6037 	40.8786 	211.5044
   	2194.86480 	2.5565 	40.6047 	195.6563
   	2195.01720 	2.5091 	40.4389 	176.8013
   	2195.16960 	2.4600 	41.1229 	134.3117
   	2195.32200 	2.4110 	41.8068 	91.8221
   	2195.47440 	2.3619 	42.4907 	49.3325
   	2195.62680 	2.3489 	45.3586 	42.4072
   	2195.77920 	2.3432 	48.6674 	42.6622
   	2195.93160 	2.3375 	51.9762 	42.9171
   	2196.08400 	2.3327 	51.6262 	43.5400
   	2196.23640 	2.3285 	48.2969 	44.4626
   	2196.38880 	2.3243 	44.9676 	45.3852
   	2196.54120 	2.3232 	42.5505 	46.1229
   	2196.69360 	2.3303 	42.5952 	46.3615
   	2196.84600 	2.3374 	42.6399 	46.6001
   	2196.99840 	2.3445 	42.6846 	46.8387
   	2197.15080 	2.3364 	42.8586 	48.6531
   	2197.30320 	2.3281 	43.0340 	50.4843
   	2197.45560 	2.3198 	43.2094 	52.3155
   	2197.60800 	2.3143 	42.9743 	53.6593
   	2197.76040 	2.3099 	42.5705 	54.8028
   	2197.91280 	2.3055 	42.1667 	55.9462
   	2198.06520 	2.3113 	42.1318 	57.0713
   	2198.21760 	2.3307 	42.5901 	58.1719
   	2198.37000 	2.3501 	43.0485 	59.2724
   	2198.52240 	2.3646 	43.3017 	60.2248
   	2198.67480 	2.3505 	42.3648 	60.3174
   	2198.82720 	2.3364 	41.4278 	60.4099
   	2198.97960 	2.3224 	40.4908 	60.5024
   	2199.13200 	2.3169 	39.7088 	60.0838
   	2199.28440 	2.3127 	38.9506 	59.5862
   	2199.43680 	2.3085 	38.1925 	59.0886
   	2199.58920 	2.3058 	39.2577 	59.0239
   	2199.74160 	2.3042 	41.6149 	59.2659
   	2199.89400 	2.3025 	43.9721 	59.5080
   	2200.04640 	2.3011 	45.1988 	59.4763
   	2200.19880 	2.3001 	43.8428 	58.8192
   	2200.35120 	2.2991 	42.4868 	58.1622
   	2200.50360 	2.2983 	41.1386 	57.5251
   	2200.65600 	2.3080 	40.1119 	57.7123
   	2200.80840 	2.3177 	39.0851 	57.8995
   	2200.96080 	2.3273 	38.0583 	58.0867
   	2201.11320 	2.3244 	38.4552 	57.5837
   	2201.26560 	2.3172 	39.3451 	56.8418
   	2201.41800 	2.3099 	40.2351 	56.0999
   	2201.57040 	2.3111 	40.2944 	56.0387
   	2201.72280 	2.3222 	39.3864 	56.7704
   	2201.87520 	2.3334 	38.4784 	57.5021
   	2202.02760 	2.3494 	38.0037 	59.1025
   	2202.18000 	2.3879 	39.4889 	64.6305
   	2202.33240 	2.4264 	40.9740 	70.1585
   	2202.48480 	2.4648 	42.4591 	75.6865
   	2202.63720 	2.4377 	42.3915 	72.7434
   	2202.78960 	2.4032 	42.1519 	68.8617
   	2202.94200 	2.3688 	41.9122 	64.9801
   	2203.09440 	2.3467 	41.6448 	62.3542
   	2203.24680 	2.3322 	41.3603 	60.4998
   	2203.39920 	2.3178 	41.0757 	58.6455
   	2203.55160 	2.3080 	40.7625 	57.1055
   	2203.70400 	2.3073 	40.3932 	56.1796
   	2203.85640 	2.3067 	40.0239 	55.2537
   	2204.00880 	2.3060 	39.7647 	54.2805
   	2204.16120 	2.3047 	41.3023 	52.5343
   	2204.31360 	2.3033 	42.8400 	50.7880
   	2204.46600 	2.3020 	44.3776 	49.0418
   	2204.61840 	2.3100 	44.1093 	48.5110
   	2204.77080 	2.3206 	43.3224 	48.3292
   	2204.92320 	2.3313 	42.5355 	48.1475
   	2205.07560 	2.3425 	41.5337 	48.1774
   	2205.22800 	2.3542 	40.3137 	48.4223
   	2205.38040 	2.3659 	39.0937 	48.6672
   	2205.53280 	2.3729 	38.2964 	48.7187
   	2205.68520 	2.3629 	39.0404 	48.0646
   	2205.83760 	2.3530 	39.7845 	47.4105
   	2205.99000 	2.3430 	40.5286 	46.7564
   	2206.14240 	2.3406 	40.1019 	47.0771
   	2206.29480 	2.3387 	39.5930 	47.4663
   	2206.44720 	2.3368 	39.0841 	47.8555
   	2206.59960 	2.3368 	39.3742 	48.3886
   	2206.75200 	2.3378 	40.0878 	48.9981
   	2206.90440 	2.3388 	40.8014 	49.6076
   	2207.05680 	2.3392 	41.4641 	49.4535
   	2207.20920 	2.3387 	42.0411 	48.0142
   	2207.36160 	2.3381 	42.6180 	46.5749
   	2207.51400 	2.3376 	43.2391 	45.2090
   	2207.66640 	2.3368 	44.2964 	44.5692
   	2207.81880 	2.3360 	45.3537 	43.9294
   	2207.97120 	2.3352 	46.4111 	43.2896
   	2208.12360 	2.3458 	45.6789 	43.9271
   	2208.27600 	2.3589 	44.5296 	44.8621
   	2208.42840 	2.3720 	43.3804 	45.7971
   	2208.58080 	2.3815 	42.9534 	46.9997
   	2208.73320 	2.3876 	43.1664 	48.4392
   	2208.88560 	2.3938 	43.3794 	49.8788
   	2209.03800 	2.3940 	43.0589 	50.7100
   	2209.19040 	2.3763 	41.1325 	49.7095
   	2209.34280 	2.3586 	39.2060 	48.7091
   	2209.49520 	2.3409 	37.2796 	47.7086
   	2209.64760 	2.3404 	38.1640 	48.0506
   	2209.80000 	2.3405 	39.1397 	48.4362
   	2209.95240 	2.3407 	40.1155 	48.8219
   	2210.10480 	2.3401 	41.6915 	48.9410
   	2210.25720 	2.3392 	43.5401 	48.9390
   	2210.40960 	2.3383 	45.3888 	48.9370
   	2210.56200 	2.3378 	46.2123 	48.7978
   	2210.71440 	2.3379 	45.5411 	48.4585
   	2210.86680 	2.3379 	44.8698 	48.1192
   	2211.01920 	2.3388 	44.2112 	47.7861
   	2211.17160 	2.3452 	43.6403 	47.4958
   	2211.32400 	2.3517 	43.0693 	47.2056
   	2211.47640 	2.3581 	42.4983 	46.9154
   	2211.62880 	2.3558 	41.9401 	46.3712
   	2211.78120 	2.3518 	41.3843 	45.7804
   	2211.93360 	2.3478 	40.8285 	45.1897
   	2212.08600 	2.3461 	41.3027 	45.1790
   	2212.23840 	2.3463 	42.5720 	45.6162
   	2212.39080 	2.3465 	43.8413 	46.0534
   	2212.54320 	2.3460 	44.4685 	46.1563
   	2212.69560 	2.3439 	43.4725 	45.4145
   	2212.84800 	2.3419 	42.4766 	44.6727
   	2213.00040 	2.3398 	41.4873 	43.9328
   	2213.15280 	2.3390 	43.0489 	43.9455
   	2213.30520 	2.3382 	44.6105 	43.9582
   	2213.45760 	2.3373 	46.1720 	43.9709
   	2213.61000 	2.3401 	46.6708 	44.1560
   	2213.76240 	2.3442 	46.7600 	44.4076
   	2213.91480 	2.3483 	46.8491 	44.6592
   	2214.06720 	2.3480 	46.6386 	44.8881
   	2214.21960 	2.3421 	46.0480 	45.0885
   	2214.37200 	2.3362 	45.4574 	45.2888
   	2214.52440 	2.3333 	45.0017 	45.6549
   	2214.67680 	2.3461 	45.2537 	46.8903
   	2214.82920 	2.3589 	45.5056 	48.1258
   	2214.98160 	2.3718 	45.7575 	49.3612
   	2215.13400 	2.3641 	46.3132 	49.4626
   	2215.28640 	2.3537 	46.9106 	49.4083
   	2215.43880 	2.3433 	47.5080 	49.3540
   	2215.59120 	2.3357 	46.6659 	50.7717
   	2215.74360 	2.3301 	44.8578 	53.1772
   	2215.89600 	2.3244 	43.0497 	55.5827
   	2216.04840 	2.3202 	41.3921 	57.4525
   	2216.20080 	2.3191 	40.0579 	58.1714
   	2216.35320 	2.3179 	38.7236 	58.8903
   	2216.50560 	2.3169 	37.5508 	59.5516
   	2216.65800 	2.3164 	40.6092 	58.7021
