~Version Information Block
VERS .                 2.00:  CWLS LOG ASCII STANDARD - VERSION 2.00
WRAP .                   NO:  One line per depth step
~Well Information Block
#MNEM.UNIT        Data Type   Information
#---------- ----------------  -----------
STRT .M          1646.07240:  START DEPTH
STOP .M          2270.91240:  STOP DEPTH
STEP .M             0.15240:  STEP
NULL .              -999.25:  NULL VALUE
COMP .                     :  COMPANY
WELL .             Test_LAS:  WELL
FLD  .                     :  FIELD
LOC  .                     :  LOCATION
CTRY .                     :  COUNTRY
STAT .                     :  STATE
CNTY .                     :  COUNTY
SRVC .     Petroleum Corporation of NZ Exploration Ltd:  SERVICE COMPANY
DATE .                     :  DATE
API  .                     :  API NUMBER
UWI  .         100000113635:  UNIQUE WELL ID
LATI .          -39.0898733:  LATITUDE
LONG .           174.332882:  LONGITUDE
~Curve Information Block
#MNEM.UNIT         API CODE   Curve Description
#---------- ----------------  -----------------
DEPTH.M                    :  
DENS .G/C3                 :  (RHOB)
GR   .GAPI                 :  (GR)
RESD .OHMM                 :  (LLD)
~Parameter Information Block
#MNEM.UNIT            Value   Description
#---------- ----------------  -----------
CUR_INT_BOT.M                2271:  Current interpolated bottom
PROJECT.     New Zealand Log QC Project:  
SET  .     A0_FINAL_INTER_REF_D:  
ELEVATION_AMSL.M               128.3:  Elevation above mean sea level
ELEVATION_REF.                   KB:  Measurement reference
FORMATION_AT_TD.            Mangahewa:  Formation at TD
GL_ELEVATION_AMSL.M            123.4000:  Ground level elevation above mean sea level
KICK_OFF_DATE.           12/06/1987:  Kick off date
KICK_OFF_DEPTH.M                1843:  Kick off depth
LICENCE_NUMBER.             PML98086:  Licence number
ONSHORE_OR_OFFSHORE.              Onshore:  Onshore/offshore
PARENT_WELL.              McKee-7:  Parent well
PR_NUMBER.               PR1814:  Petroleum report number
STATUS_AT_COMPLETION.     Plugged and abandoned:  Status at completion
TD_DATE.           15/06/1987:  Total depth date
TOTAL_DEPTH_DRILLED.M                2271:  Total depth drilled
~Other Information Block
# 
~A           DEPTH           DENS              GR            RESD
# ...
   	2246.52840 	1.2241 	19.1920 	1332.2694
   	2246.68080 	1.2626 	34.1751 	904.7803
   	2246.83320 	1.3011 	49.1582 	477.2912
   	2246.98560 	1.3396 	64.1413 	49.8021
   	2247.13800 	1.5710 	69.0938 	8.3657
   	2247.29040 	1.8226 	72.9996 	7.2129
   	2247.44280 	2.0741 	76.9054 	6.0602
   	2247.59520 	2.1769 	80.3716 	5.6460
   	2247.74760 	2.1903 	83.5737 	5.6754
   	2247.90000 	2.2037 	86.7758 	5.7049
   	2248.05240 	2.2302 	87.9609 	5.7254
   	2248.20480 	2.2815 	85.2970 	5.7288
   	2248.35720 	2.3328 	82.6331 	5.7323
   	2248.50960 	2.3792 	80.1397 	5.7338
   	2248.66200 	2.3517 	80.1823 	5.7063
   	2248.81440 	2.3242 	80.2249 	5.6788
   	2248.96680 	2.2967 	80.2675 	5.6513
   	2249.11920 	2.3309 	78.8849 	5.6797
   	2249.27160 	2.3823 	77.1053 	5.7235
   	2249.42400 	2.4338 	75.3257 	5.7674
   	2249.57640 	2.4681 	74.7639 	6.0276
   	2249.72880 	2.4854 	75.4135 	6.5031
   	2249.88120 	2.5027 	76.0630 	6.9785
   	2250.03360 	2.5177 	77.0011 	7.3248
   	2250.18600 	2.5243 	78.9597 	7.2144
   	2250.33840 	2.5310 	80.9182 	7.1040
   	2250.49080 	2.5376 	82.8767 	6.9936
   	2250.64320 	2.5359 	81.1988 	7.0761
   	2250.79560 	2.5336 	79.2873 	7.1709
   	2250.94800 	2.5314 	77.3758 	7.2658
   	2251.10040 	2.5297 	77.1235 	7.4183
   	2251.25280 	2.5283 	77.7307 	7.6007
   	2251.40520 	2.5269 	78.3378 	7.7830
   	2251.55760 	2.5093 	78.3582 	7.9280
   	2251.71000 	2.4651 	77.4129 	8.0115
   	2251.86240 	2.4209 	76.4676 	8.0950
   	2252.01480 	2.3771 	75.6440 	8.1567
   	2252.16720 	2.3371 	75.9516 	8.0159
   	2252.31960 	2.2971 	76.2592 	7.8750
   	2252.47200 	2.2571 	76.5668 	7.7341
   	2252.62440 	2.2431 	77.0418 	7.5721
   	2252.77680 	2.2349 	77.5544 	7.4052
   	2252.92920 	2.2267 	78.0671 	7.2384
   	2253.08160 	2.2268 	78.9836 	7.0963
   	2253.23400 	2.2339 	80.2506 	6.9756
   	2253.38640 	2.2410 	81.5177 	6.8549
   	2253.53880 	2.2470 	82.6041 	6.7506
   	2253.69120 	2.2496 	83.1619 	6.6944
   	2253.84360 	2.2522 	83.7198 	6.6381
   	2253.99600 	2.2549 	84.2776 	6.5818
   	2254.14840 	2.2544 	83.6334 	6.3942
   	2254.30080 	2.2539 	82.9569 	6.2029
   	2254.45320 	2.2533 	82.2804 	6.0117
   	2254.60560 	2.2541 	82.5334 	6.0353
   	2254.75800 	2.2555 	83.1984 	6.1540
   	2254.91040 	2.2569 	83.8634 	6.2728
   	2255.06280 	2.2580 	84.1722 	6.3250
   	2255.21520 	2.2586 	83.9728 	6.2825
   	2255.36760 	2.2592 	83.7734 	6.2400
   	2255.52000 	-999.2500 	83.5088 	6.1746
   	2255.67240 	-999.2500 	82.8124 	5.9577
   	2255.82480 	-999.2500 	82.1160 	5.7407
   	2255.97720 	-999.2500 	81.4196 	5.5238
   	2256.12960 	-999.2500 	83.7281 	5.5595
   	2256.28200 	-999.2500 	86.5651 	5.6396
   	2256.43440 	-999.2500 	89.4022 	5.7197
   	2256.58680 	-999.2500 	90.2379 	5.6974
   	2256.73920 	-999.2500 	89.5611 	5.5978
   	2256.89160 	-999.2500 	88.8843 	5.4981
   	2257.04400 	-999.2500 	88.3044 	5.3298
   	2257.19640 	-999.2500 	87.9630 	4.9924
   	2257.34880 	-999.2500 	87.6217 	4.6550
   	2257.50120 	-999.2500 	87.2689 	4.3208
   	2257.65360 	-999.2500 	85.4760 	4.3967
   	2257.80600 	-999.2500 	83.6831 	4.4725
   	2257.95840 	-999.2500 	81.8902 	4.5484
   	2258.11080 	-999.2500 	81.6219 	5.1163
   	2258.26320 	-999.2500 	81.9260 	5.8691
   	2258.41560 	-999.2500 	82.2302 	6.6218
   	2258.56800 	-999.2500 	82.4203 	7.0834
   	2258.72040 	-999.2500 	82.4688 	7.1836
   	2258.87280 	-999.2500 	82.5173 	7.2838
   	2259.02520 	-999.2500 	82.8821 	7.3788
   	2259.17760 	-999.2500 	84.8432 	7.4472
   	2259.33000 	-999.2500 	86.8044 	7.5156
   	2259.48240 	-999.2500 	88.7655 	7.5841
   	2259.63480 	-999.2500 	85.6075 	7.7082
   	2259.78720 	-999.2500 	81.7811 	7.8397
   	2259.93960 	-999.2500 	77.9548 	7.9711
   	2260.09200 	-999.2500 	76.7148 	8.0310
   	2260.24440 	-999.2500 	77.1728 	8.0438
   	2260.39680 	-999.2500 	77.6309 	8.0567
   	2260.54920 	-999.2500 	77.6708 	8.0314
   	2260.70160 	-999.2500 	76.8338 	7.9262
   	2260.85400 	-999.2500 	75.9968 	7.8209
   	2261.00640 	-999.2500 	75.2164 	7.7273
   	2261.15880 	-999.2500 	75.7273 	7.8983
   	2261.31120 	-999.2500 	76.2382 	8.0694
   	2261.46360 	-999.2500 	76.7491 	8.2405
   	2261.61600 	-999.2500 	78.2963 	8.4869
   	2261.76840 	-999.2500 	80.1686 	8.7570
   	2261.92080 	-999.2500 	82.0410 	9.0271
   	2262.07320 	-999.2500 	82.3636 	10.0308
   	2262.22560 	-999.2500 	81.0093 	11.8281
   	2262.37800 	-999.2500 	79.6551 	13.6255
   	2262.53040 	-999.2500 	78.7785 	14.7226
   	2262.68280 	-999.2500 	79.8186 	13.0098
   	2262.83520 	-999.2500 	80.8587 	11.2970
   	2262.98760 	-999.2500 	81.8989 	9.5842
   	2263.14000 	-999.2500 	82.6993 	9.6467
   	2263.29240 	-999.2500 	83.4786 	9.8665
   	2263.44480 	-999.2500 	84.2578 	10.0863
   	2263.59720 	-999.2500 	84.4291 	10.1722
   	2263.74960 	-999.2500 	84.2551 	10.1822
   	2263.90200 	-999.2500 	84.0811 	10.1922
   	2264.05440 	-999.2500 	83.8570 	10.1091
   	2264.20680 	-999.2500 	83.5424 	9.8583
   	2264.35920 	-999.2500 	83.2279 	9.6075
   	2264.51160 	-999.2500 	82.8822 	-999.2500
   	2264.66400 	-999.2500 	82.1575 	-999.2500
   	2264.81640 	-999.2500 	81.4327 	-999.2500
   	2264.96880 	-999.2500 	80.7080 	-999.2500
   	2265.12120 	-999.2500 	80.4888 	-999.2500
   	2265.27360 	-999.2500 	80.3998 	-999.2500
   	2265.42600 	-999.2500 	80.3107 	-999.2500
   	2265.57840 	-999.2500 	-999.2500 	-999.2500
   	2265.73080 	-999.2500 	-999.2500 	-999.2500
   	2265.88320 	-999.2500 	-999.2500 	-999.2500
   	2266.03560 	-999.2500 	-999.2500 	-999.2500
   	2266.18800 	-999.2500 	-999.2500 	-999.2500
   	2266.34040 	-999.2500 	-999.2500 	-999.2500
   	2266.49280 	-999.2500 	-999.2500 	-999.2500
   	2266.64520 	-999.2500 	-999.2500 	-999.2500
   	2266.79760 	-999.2500 	-999.2500 	-999.2500
   	2266.95000 	-999.2500 	-999.2500 	-999.2500
   	2267.10240 	-999.2500 	-999.2500 	-999.2500
   	2267.25480 	-999.2500 	-999.2500 	-999.2500
   	2267.40720 	-999.2500 	-999.2500 	-999.2500
   	2267.55960 	-999.2500 	-999.2500 	-999.2500
   	2267.71200 	-999.2500 	-999.2500 	-999.2500
   	2267.86440 	-999.2500 	-999.2500 	-999.2500
   	2268.01680 	-999.2500 	-999.2500 	-999.2500
   	2268.16920 	-999.2500 	-999.2500 	-999.2500
   	2268.32160 	-999.2500 	-999.2500 	-999.2500
   	2268.47400 	-999.2500 	-999.2500 	-999.2500
   	2268.62640 	-999.2500 	-999.2500 	-999.2500
   	2268.77880 	-999.2500 	-999.2500 	-999.2500
   	2268.93120 	-999.2500 	-999.2500 	-999.2500
   	2269.08360 	-999.2500 	-999.2500 	-999.2500
   	2269.23600 	-999.2500 	-999.2500 	-999.2500
   	2269.38840 	-999.2500 	-999.2500 	-999.2500
   	2269.54080 	-999.2500 	-999.2500 	-999.2500
   	2269.69320 	-999.2500 	-999.2500 	-999.2500
   	2269.84560 	-999.2500 	-999.2500 	-999.2500
   	2269.99800 	-999.2500 	-999.2500 	-999.2500
   	2270.15040 	-999.2500 	-999.2500 	-999.2500
   	2270.30280 	-999.2500 	-999.2500 	-999.2500
   	2270.45520 	-999.2500 	-999.2500 	-999.2500
   	2270.60760 	-999.2500 	-999.2500 	-999.2500
   	2270.76000 	-999.2500 	-999.2500 	-999.2500
   	2270.91240 	-999.2500 	-999.2500 	-999.2500
